{"type":"FeatureCollection","features":[{"type":"Feature","properties":{"city":"Atlanta","state":"Georgia","name":"MARTA","established":1979,"last_expanded":2000,"stations":38,"system_length_mi":48},"geometry":{"type":"Point","coordinates":[-84.3911133,33.7483101]}},{"type":"Feature","properties":{"city":"Baltimore","state":"Maryland","name":"Baltimore Metro Subway","established":1983,"last_expanded":1995,"stations":14,"system_length_mi":15.5},"geometry":{"type":"Point","coordinates":[-76.6092606,39.2905807]}},{"type":"Feature","properties":{"city":"Boston","state":"Massachusetts","name":"MBTA Subway","established":1901,"last_expanded":2014,"stations":51,"system_length_mi":38},"geometry":{"type":"Point","coordinates":[-71.0567398,42.3586617]}},{"type":"Feature","properties":{"city":"Chicago","state":"Illinois","name":"Chicago \"L\"","established":1897,"last_expanded":2015,"stations":145,"system_length_mi":102.8},"geometry":{"type":"Point","coordinates":[-87.6324463,41.8842506]}},{"type":"Feature","properties":{"city":"Cleveland","state":"Ohio","name":"RTA Trapid Transit","established":1955,"last_expanded":1968,"stations":18,"system_length_mi":19},"geometry":{"type":"Point","coordinates":[-81.6907425,41.5047302]}},{"type":"Feature","properties":{"city":"Los Angeles","state":"California","name":"Metro Rail","established":1993,"last_expanded":2000,"stations":16,"system_length_mi":17.4},"geometry":{"type":"Point","coordinates":[-118.2453232,34.0534897]}},{"type":"Feature","properties":{"city":"Miami","state":"Florida","name":"Metrorail","established":1984,"last_expanded":2012,"stations":23,"system_length_mi":24.9},"geometry":{"type":"Point","coordinates":[-80.197731,25.7748108]}},{"type":"Feature","properties":{"city":"New York City","state":"New York","name":"New York City Subway","established":1904,"last_expanded":2017,"stations":424,"system_length_mi":236.2},"geometry":{"type":"Point","coordinates":[-74.0071411,40.71455]}},{"type":"Feature","properties":{"city":"Staten Island","state":"New York","name":"Staten Island Railway","established":1925,"last_expanded":2017,"stations":21,"system_length_mi":14},"geometry":{"type":"Point","coordinates":[-74.0752716,40.6424217]}},{"type":"Feature","properties":{"city":"Jersey City","state":"New Jersey","name":"Port Authority Trans-Hudson","established":1908,"last_expanded":1911,"stations":13,"system_length_mi":13.8},"geometry":{"type":"Point","coordinates":[-74.0438538,40.7174797]}},{"type":"Feature","properties":{"city":"Philadelphia","state":"Pennsylvania","name":"SEPTA","established":1907,"last_expanded":1973,"stations":75,"system_length_mi":36.7},"geometry":{"type":"Point","coordinates":[-75.162178,39.9522209]}},{"type":"Feature","properties":{"city":"Lindenwold","state":"New Jersey","name":"PATCO Speedline","established":1936,"last_expanded":1969,"stations":13,"system_length_mi":14.2},"geometry":{"type":"Point","coordinates":[-74.9705811,39.8167915]}},{"type":"Feature","properties":{"city":"San Francisco","state":"California","name":"BART","established":1972,"last_expanded":2017,"stations":45,"system_length_mi":104},"geometry":{"type":"Point","coordinates":[-122.4196396,37.7771187]}},{"type":"Feature","properties":{"city":"Washington","state":"District of Columbia","name":"Washington Metro","established":1976,"last_expanded":2014,"stations":91,"system_length_mi":117},"geometry":{"type":"Point","coordinates":[-77.028801,38.898341]}}]}